     2.11           OBSERVATION DATA    M (MIXED)           RINEX VERSION / TYPE
teqc  2018Jun8                          20200124 10:30:48UTCPGM / RUN BY / DATE
Linux2.6.32-573.12.1.el6.x86_64|x86_64|gcc|Win64-MinGW64|=+ COMMENT
teqc  2018Oct12     UNAVCO Archive Ops  20181116 19:57:15UTCCOMMENT
Solaris x86 5.10|AMD64|cc SC5.8 -xarch=amd64|=+|=+          COMMENT
BIT 2 OF LLI FLAGS DATA COLLECTED UNDER A/S CONDITION       COMMENT
IAGX                                                        MARKER NAME
                                                            MARKER NUMBER
Alejandro Gonzalez-OCICESE                                  OBSERVER / AGENCY
4931K62904          TRIMBLE NETR8       4.87                REC # / TYPE / VERS
20365585            TRM59800.00     SCIT                    ANT # / TYPE
 -2196283.5794 -5131269.9164  3076549.5719                  APPROX POSITION XYZ
        0.0083        0.0000        0.0000                  ANTENNA: DELTA H/E/N
     1     1                                                WAVELENGTH FACT L1/2
     5    L1    C1    L2    P2    D1                        # / TYPES OF OBSERV
    30.0000                                                 INTERVAL
    18                                                      LEAP SECONDS
input file: iagx201803090000a.tgd                           COMMENT
RINEX file created by UNAVCO GPS Archive.                   COMMENT
For more information contact archive-gps@unavco.org         COMMENT
Monument ID: 25683                                          COMMENT
UNAVCO 4-char name:   IAGX                                  COMMENT
4-char name from Log or data file: IAGX                     COMMENT
Monument location: 29.026575 -113.171869 149.5              COMMENT
Visit ID: 122930                                            COMMENT
                                                            COMMENT
iagxREGNOMmx2018                                            COMMENT
                                                            COMMENT
End of DB comments                                          COMMENT
 SNR is mapped to RINEX snr flag value [0-9]                COMMENT
  L1 & L2: min(max(int(snr_dBHz/6), 0), 9)                  COMMENT
Forced Modulo Decimation to 30 seconds                      COMMENT
teqc edited: all GLONASS satellites excluded                COMMENT
teqc edited: all SBAS satellites excluded                   COMMENT
teqc edited: all Galileo satellites excluded                COMMENT
teqc edited: all Beidou satellites excluded                 COMMENT
teqc edited: all QZSS satellites excluded                   COMMENT
  2018     3     9     0     0    0.0000000     GPS         TIME OF FIRST OBS
                                                            END OF HEADER
 18  3  9  0  0  0.0000000  0 11G07G11G19G28G30G15G06G01G09G17G13
 114546951.868 8  21797561.859    89257368.12846  21797570.426
 118784286.583 7  22603893.102    92559226.80144  22603900.086
 115254465.495 7  21932178.406    89808711.50346  21932185.039
 112809895.926 8  21467007.461    87903823.53446  21467014.738
 108243336.735 8  20598022.484    84345470.19947  20598032.398
 128100833.765 7  24376765.227    99818809.97443  24376772.738
 132102137.21915  25138196.844   102936782.39852  25138213.031
 120293047.564 6  22890988.398    93734847.88344  22890999.953
 134437713.957 5  25582643.586
 109216576.435 8  20783203.258    85103842.98747  20783211.238
 115278705.437 7  21936807.742    89827610.85345  21936815.605
 18  3  9  0  0 30.0000000  0 11G07G11G19G28G30G15G06G01G09G17G13
 114612094.058 8  21809958.320    89308128.24246  21809966.652
 118832568.677 7  22613081.250    92596849.18944  22613087.883
 115166380.783 7  21915416.695    89740074.09146  21915422.625
 112830237.513 8  21470878.719    87919674.11446  21470885.703
 108271703.834 8  20603420.492    84367574.43347  20603430.758
 128051675.703 7  24367410.195    99780504.99043  24367418.586
 132006058.94914  25119917.188   102861915.97052  25119930.207
 120292928.908 6  22890965.852    93734755.43244  22890977.230
 134539995.793 6  25602108.992
 109181268.291 8  20776484.445    85076330.16547  20776492.367
 115253507.100 7  21932012.930    89807975.78945  21932020.148
 18  3  9  0  1  0.0000000  0 11G07G11G19G28G30G15G06G01G09G17G13
 114677619.189 8  21822427.234    89359186.75845  21822435.156
 118881378.222 7  22622368.680    92634882.61244  22622375.840
 115078672.912 7  21898726.500    89671730.32746  21898732.781
 112850610.541 8  21474755.484    87935549.20246  21474762.527
 108300496.650 8  20608899.336    84390010.39047  20608909.836
 128002974.553 7  24358142.766    99742556.04843  24358151.098
 131909798.02115  25101600.633   102786907.87852  25101612.012
 120293369.842 6  22891048.852    93735099.02744  22891060.934
 134642100.786 5  25621538.273
 109146445.307 8  20769858.109    85049195.38447  20769865.738
 115228890.941 7  21927328.945    89788794.36145  21927335.930
 18  3  9  0  1 30.0000000  0 11G07G11G19G28G30G15G06G01G09G17G13
 114743526.363 8  21834969.109    89410542.97845  21834977.207
 118930714.046 7  22631757.766    92673326.10844  22631764.457
 114991343.596 7  21882108.188    89603681.53846  21882114.527
 112871014.702 8  21478638.016    87951448.55146  21478645.469
 108329715.701 8  20614459.578    84412778.47947  20614469.727
 127954731.566 7  24348961.883    99704964.10243  24348970.156
 131813354.952 5  25083240.758   102711757.61142  25083258.820
 120294371.248 6  22891240.117    93735879.36144  22891251.496
 134744024.82914  25640938.719
 109112107.627 8  20763323.820    85022438.77447  20763331.449
 115204857.697 8  21922754.844    89770067.15945  21922762.766
 18  3  9  0  2  0.0000000  0 10G07G11G19G28G30G15G06G01G17G13
 114809815.593 8  21847583.203    89462196.89545  21847591.184
 118980574.841 7  22641246.023    92712178.66044  22641253.359
 114904395.012 7  21865562.383    89535929.43146  21865568.195
 112891449.839 8  21482526.789    87967372.03746  21482533.539
 108359361.465 8  20620101.203    84435879.07847  20620111.586
 127906948.131 7  24339869.273    99667730.28443  24339877.430
 131716732.339 5  25064861.563   102636467.50243  25064873.352
 120295933.967 6  22891538.320    93737097.09944  22891548.352
 109078255.586 8  20756882.273    84996060.57847  20756889.551
 115181408.154 7  21918292.617    89751794.79745  21918300.773
 18  3  9  0  2 30.0000000  0 10G07G11G19G28G30G15G06G01G17G13
 114876485.414 8  21860270.477    89514147.38145  21860278.574
 119030958.359 7  22650833.211    92751438.54044  22650839.902
 114817828.473 7  21849089.313    89468475.01346  21849095.477
 112911914.614 8  21486421.438    87983318.60946  21486428.305
 108389433.900 8  20625824.188    84459312.14147  20625833.926
 127859624.945 7  24330864.102    99630855.08743  24330872.961
 131619932.42615  25046437.953
 120298058.408 6  22891941.938    93738752.51944  22891953.668
 109044888.846 8  20750532.438    84970060.54047  20750540.184
 115158542.187 8  21913941.125    89733977.14845  21913949.398
 18  3  9  0  3  0.0000000  0 10G07G11G19G28G30G15G06G01G17G13
 114943535.190 8  21873029.578    89566393.92446  21873037.910
 119081863.422 7  22660520.016    92791104.81444  22660527.176
 114731646.324 7  21832689.711    89401320.12946  21832695.582
 112932408.661 8  21490320.797    87999287.98946  21490328.191
 108419933.592 8  20631627.961    84483078.13247  20631637.348
 127812763.244 7  24321945.742    99594339.49443  24321954.602
 131522956.122 5  25027979.500   102485462.63242  25027997.621
 120300745.421 6  22892453.055    93740846.28144  22892465.195
 109012007.546 8  20744275.406    84944438.76747  20744282.742
 115136260.634 7  21909701.648    89716614.89345  21909709.102
 18  3  9  0  3 30.0000000  0 10G07G11G19G28G30G15G06G01G17G13
 115010964.400 8  21885860.961    89618936.13345  21885869.059
 119133288.463 7  22670305.820    92831176.25644  22670313.449
 114645850.045 7  21816363.039    89334465.91446  21816368.910
 112952931.257 8  21494226.844    88015279.62146  21494234.063
 108450860.768 8  20637513.281    84507177.21647  20637523.020
 127766364.010 7  24313116.992    99558184.25443  24313125.441
 131425806.292 5  25009496.320   102409761.68742  25009510.516
 120303995.541 7  22893071.875    93743378.84344  22893083.313
 108979611.665 8  20738110.531    84919195.23847  20738118.160
 115114563.883 8  21905572.797    89699708.33345  21905580.250
 18  3  9  0  4  0.0000000  0 10G07G11G19G28G30G15G06G01G17G13
 115078772.496 8  21898764.313    89671773.57945  21898772.117
 119185231.785 7  22680190.945    92871651.56444  22680197.578
 114560442.011 7  21800110.438    89267914.23646  21800116.543
 112973482.511 8  21498137.055    88031293.58546  21498144.508
 108482215.943 8  20643479.594    84531609.81547  20643489.801
 127720428.528 7  24304375.867    99522390.40443  24304384.023
 131328485.561 6  24990977.406   102333927.44642  24990991.070
 120307809.712 6  22893797.750    93746350.93344  22893809.188
 108947701.525 8  20732038.172    84894330.21147  20732046.094
 115093452.678 7  21901555.531    89683258.03845  21901562.867
 18  3  9  0  4 30.0000000  0 10G07G11G19G28G30G15G06G01G17G13
 115146958.740 8  21911740.141    89724905.69646  21911747.828
 119237692.164 7  22690173.930    92912529.77344  22690180.738
 114475424.009 7  21783931.664    89201666.46646  21783938.180
 112994061.700 8  21502053.617    88047329.31246  21502060.367
 108513999.722 8  20649527.938    84556376.38647  20649537.910
 127674958.057 7  24295722.422    99486958.88943  24295730.754
 131230996.330 6  24972426.484   102257962.02442  24972438.273
 120312188.798 6  22894630.813    93749763.23344  22894641.547
 108916277.442 8  20726058.688    84869843.92147  20726066.375
 115072927.594 7  21897649.250    89667264.46245  21897657.289
 18  3  9  0  5  0.0000000  0 10G07G11G19G28G30G15G06G01G17G13
 115215522.288 8  21924787.078    89778331.81745  21924795.410
 119290667.712 7  22700254.313    92953809.39544  22700261.766
 114390797.708 7  21767828.211    89135723.92646  21767833.848
 113014668.076 8  21505974.648    88063386.22246  21505982.336
 108546211.864 8  20655657.500    84581476.74447  20655667.766
 127629953.290 7  24287158.484    99451890.24543  24287166.816
 131133340.650 5  24953839.539   102181866.76543  24953855.082
 120317132.951 6  22895571.531    93753615.83144  22895582.910
 108885338.651 8  20720170.945    84845735.79147  20720178.809
 115052988.576 7  21893855.594    89651727.55245  21893862.930
 18  3  9  0  5 30.0000000  0 10G07G11G19G28G30G15G06G01G17G13
 115284462.449 8  21937905.945    89832051.39245  21937914.277
 119344157.288 7  22710433.422    92995489.57444  22710440.289
 114306565.039 7  21751799.227    89070088.11146  21751805.508
 113035301.368 8  21509901.531    88079464.11146  21509908.340
 108578852.931 8  20661868.953    84606911.32747  20661879.102
 127585415.371 7  24278683.859    99417185.38943  24278691.430
 131035520.819 5  24935223.516   102105643.74543  24935240.406
 120322642.944 6  22896620.563    93757909.34044  22896631.063
 108854885.941 8  20714376.047    84822006.41347  20714384.203
 115033636.193 7  21890172.508    89636647.77445  21890180.313
 18  3  9  0  6  0.0000000  0 10G07G11G19G28G30G15G06G01G17G13
 115353778.625 7  21951096.352    89886063.96945  21951104.742
 119398158.681 7  22720709.219    93037568.58344  22720716.789
 114222728.203 7  21735845.766    89004760.73146  21735851.520
 113055961.242 8  21513832.766    88095562.71146  21513839.398
 108611922.927 8  20668161.891    84632680.14547  20668172.039
 127541345.395 7  24270296.984    99382845.16443  24270305.492
 130937539.095 5  24916579.117   102029294.47042  24916595.422
 120328719.100 6  22897775.766    93762644.01544  22897788.375
 108824918.768 8  20708673.500    84798655.38547  20708681.070
 115014870.474 7  21886601.758    89622025.12845  21886609.270
 18  3  9  0  6 30.0000000  0 10G07G11G19G28G30G15G06G01G17G13
 115423469.764 8  21964358.391    89940368.72145  21964366.840
 119452670.420 7  22731082.227    93080045.23744  22731089.914
 114139288.720 7  21719967.398    88939742.97946  21719973.680
 113076647.313 8  21517769.500    88111681.72946  21517776.543
 108645422.364 8  20674537.000    84658783.58747  20674547.207
 127497744.584 7  24262000.484    99348870.51643  24262008.816
 130839397.905 5  24897905.250   101952820.98842  24897919.973
 120335362.071 6  22899040.672    93767820.35444  22899052.285
 108795437.044 8  20703063.070    84775682.62647  20703070.523
 114996692.111 7  21883141.938    89607860.16645  21883150.094
 18  3  9  0  7  0.0000000  0 10G07G11G19G28G30G15G06G01G17G13
 115493535.456 8  21977691.563    89994965.33345  21977699.719
 119507690.972 7  22741552.391    93122918.39144  22741559.902
 114056248.453 7  21704165.195    88875036.30446  21704171.359
 113097358.975 8  21521709.852    88127820.67946  21521717.480
 108679351.706 8  20680993.523    84685222.02947  20681003.555
 127454613.795 7  24253793.000    99315262.10643  24253801.449
 130741099.800 5  24879199.508   101876225.24443  24879213.172
 120342572.783 6  22900412.016    93773439.10344  22900424.332
 108766441.313 8  20697545.602    84753088.56047  20697552.527
 114979101.664 7  21879794.789    89594153.32045  21879802.535
 18  3  9  0  7 30.0000000  0 10G07G11G19G28G30G15G06G01G17G13
 115563974.783 8  21991095.570    90049853.08545  21991103.375
 119563218.724 7  22752119.039    93166186.77044  22752126.258
 113973609.627 7  21688439.508    88810642.43446  21688445.555
 113118095.882 8  21525656.375    88143979.31046  21525663.301
 108713711.148 8  20687531.859    84711995.61147  20687541.598
 127411954.117 7  24245674.898    99282020.81243  24245683.172
 130642647.158 6  24860464.000   101799509.08243  24860478.016
 120350351.553 6  22901892.031    93779500.50444  22901904.348
 108737931.309 8  20692120.352    84730872.98047  20692128.039
 114962099.205 7  21876559.656    89580904.65045  21876567.578
 18  3  9  0  8  0.0000000  0 10G07G11G19G28G30G15G06G01G17G13
 115634786.647 8  22004570.703    90105031.13246  22004578.566
 119619251.878 7  22762782.078    93209848.94444  22762789.531
 113891373.548 7  21672789.992    88746562.40346  21672796.566
 113138857.831 8  21529607.070    88160157.44946  21529614.406
 108748500.808 8  20694152.125    84739104.43247  20694162.332
 127369766.325 7  24237646.805    99249147.22943  24237655.313
 130544042.296 6  24841700.930   101722674.32143  24841714.418
 120358698.765 6  22903481.477    93786004.83444  22903492.797
 108709906.329 8  20686787.461    84709035.33847  20686795.441
 114945685.154 8  21873436.164    89568114.47645  21873444.027
 18  3  9  0  8 30.0000000  0 10G07G11G19G28G30G15G06G01G17G13
 115705970.626 7  22018116.367    90160499.14745  22018124.641
 119675788.734 7  22773540.203    93253903.61944  22773547.070
 113809542.380 7  21657218.680    88682797.88646  21657225.313
 113159644.292 8  21533562.914    88176354.69346  21533569.547
 108783721.091 8  20700854.211    84766548.79947  20700864.418
 127328051.699 6  24229709.148    99216642.33143  24229717.012
 130445287.649 6  24822908.508   101645722.89042  24822921.938
 120367615.059 6  22905178.102    93792952.60444  22905189.715
 108682367.106 8  20681546.484    84687576.21847  20681554.172
 114929859.906 8  21870424.539    89555783.10845  21870432.051
 18  3  9  0  9  0.0000000  0 10G07G11G19G28G30G15G06G01G17G13
 115777525.709 8  22031732.570    90216256.31345  22031740.844
 119732827.206 7  22784394.602    93298349.18644  22784401.586
 113728117.547 7  21641723.664    88619349.99146  21641730.180
 113180454.740 8  21537523.070    88192570.62646  21537529.938
 108819371.882 8  20707638.250    84794328.62847  20707648.691
 127286810.766 7  24221861.219    99184506.53843  24221869.785
 130346385.276 6  24804087.102   101568656.24942  24804100.941
 120377100.543 6  22906982.922    93800343.90844  22906994.418
 108655312.945 8  20676398.688    84666495.06847  20676406.434
 114914623.013 8  21867525.297    89543910.20245  21867533.219
 18  3  9  0  9 30.0000000  0 10G07G11G19G28G30G15G06G01G17G13
 115849451.402 8  22045419.953    90272302.27145  22045428.285
 119790366.269 7  22795343.820    93343184.79744  22795351.508
 113647101.346 7  21626306.914    88556220.50946  21626313.137
 113201289.374 8  21541487.961    88208805.40146  21541494.242
 108855453.846 8  20714504.516    84822444.43447  20714515.074
 127246044.925 7  24214102.906    99152740.95644  24214111.941
 130247338.246 6  24785238.883   101491476.95943  24785253.195
 120387156.131 6  22908896.211    93808179.42344  22908907.941
 108628744.386 8  20671342.313    84645792.30347  20671350.117
 114899975.615 8  21864737.781    89532496.63645  21864745.762
 18  3  9  0 10  0.0000000  0 10G07G11G19G28G30G15G06G01G17G13
 115921746.681 8  22059177.648    90328636.21245  22059185.336
 119848403.779 7  22806388.055    93388408.82544  22806395.039
 113566495.206 7  21610968.359    88493410.56546  21610974.113
 113222147.097 8  21545456.516    88225058.16446  21545463.441
 108891966.959 8  20721452.648    84850896.20447  20721463.148
 127205754.526 7  24206436.477    99121345.84944  24206445.219
 130148148.487 6  24766362.789   101414186.46342  24766377.922
 120397781.861 7  22910918.711    93816459.23144  22910930.207
 108602660.784 8  20666379.102    84625467.42647  20666386.789
 114885917.376 8  21862062.797    89521542.16145  21862070.250
 18  3  9  0 10 30.0000000  0 10G07G11G19G28G30G15G06G01G17G13
 115994410.314 8  22073004.797    90385257.19245  22073013.012
 119906937.655 7  22817526.664    93434019.61744  22817534.117
 113486300.726 7  21595707.938    88430921.38446  21595714.336
 113243027.808 8  21549430.070    88241328.84146  21549437.230
 108928911.037 8  20728482.961    84879683.78847  20728493.168
 127165940.563 7  24198859.984    99090321.97343  24198868.961
 130048818.253 6  24747460.367   101336786.46642  24747475.559
 120408977.857 6  22913048.664    93825183.39444  22913060.395
 108577061.620 8  20661507.820    84605520.03347  20661515.449
 114872448.101 8  21859499.375    89511046.61445  21859507.297
 18  3  9  0 11  0.0000000  0 10G07G11G19G28G30G15G06G01G17G13
 116067442.034 8  22086902.242    90442164.99345  22086910.691
 119965966.617 7  22828759.727    93480016.19944  22828766.359
 113406519.988 8  21580525.734    88368754.60146  21580531.957
 113263931.394 8  21553407.625    88257617.34346  21553414.844
 108966286.718 8  20735595.680    84908807.68747  20735605.184
 127126604.231 7  24191374.531    99059670.32444  24191383.391
 129949350.459 6  24728532.664   101259279.32742  24728546.977
 120420744.819 6  22915288.477    93834352.47544  22915299.738
 108551947.404 8  20656728.453    84585950.52347  20656736.082
 114859568.336 7  21857048.719    89501010.43045  21857056.113
 18  3  9  0 11 30.0000000  0 10G07G11G19G28G30G15G06G01G17G13
 116140840.680 8  22100869.609    90499358.71145  22100877.355
 120025488.541 7  22840086.531    93526396.91944  22840093.398
 113327154.468 7  21565423.328    88306911.36546  21565429.258
 113284857.280 8  21557389.797    88273923.22846  21557397.309
 109004093.855 8  20742789.797    84938267.78147  20742800.297
 127087746.035 7  24183980.555    99029391.20043  24183988.301
 129849747.223 6  24709578.367   101181666.62142  24709593.207
 120433082.893 7  22917635.758    93843966.56044  22917646.961
 108527317.605 8  20652041.680    84566758.47847  20652049.191
 114847277.790 8  21854709.984    89491433.37845  21854717.965
 18  3  9  0 12  0.0000000  0 10G07G11G19G28G30G15G06G01G17G13
 116214605.203 8  22114906.500    90556837.53845  22114914.480
 120085501.784 7  22851506.703    93573160.47044  22851513.629
 113248205.980 7  21550399.852    88245393.08546  21550405.664
 113305805.077 8  21561376.250    88290246.18046  21561383.059
 109042332.658 8  20750065.930    84968064.23347  20750076.781
 127049366.895 6  24176676.086    98999485.37544  24176684.887
 129750011.146 6  24690600.156   101103950.41143  24690613.586
 120445992.399 6  22920092.219    93854025.91244  22920104.242
 108503171.998 8  20647446.852    84547943.73347  20647454.773
 114835577.049 7  21852483.258    89482315.91945  21852491.297
 18  3  9  0 12 30.0000000  0 10G07G11G19G28G30G15G06G01G17G13
 116288734.629 8  22129012.961    90614600.70045  22129020.941
 120146004.125 7  22863019.703    93620305.14544  22863026.688
 113169676.042 7  21535455.969    88184200.94546  21535461.723
 113326774.740 8  21565366.516    88306586.17546  21565373.617
 109081003.137 8  20757425.273    84998197.06647  20757435.363
 127011467.609 7  24169464.570    98969953.45843  24169473.430
 129650144.499 6  24671595.781   101026132.38843  24671609.504
 120459473.390 7  22922657.984    93864530.58944  22922669.773
 108479509.991 8  20642944.211    84529505.81047  20642951.664
 114824465.815 8  21850369.047    89473657.80145  21850376.734
 18  3  9  0 13  0.0000000  0 10G07G11G19G28G30G15G06G01G17G13
 116363228.333 8  22143188.602    90672647.72345  22143196.875
 120206994.124 7  22874625.586    93667829.80344  22874633.039
 113091566.727 7  21520592.055    88123336.57446  21520598.512
 113347766.268 8  21569361.195    88322943.20946  21569368.473
 109120105.632 8  20764866.344    85028666.53547  20764876.258
 126974049.236 6  24162344.453    98940796.29343  24162352.785
 129550150.143 6  24652566.414   100948214.89642  24652581.137
 120473526.463 7  22925332.320    93875481.03844  22925343.289
 108456332.170 8  20638533.695    84511445.18347  20638541.441
 114813944.345 8  21848366.727    89465459.24545  21848374.824
 18  3  9  0 13 30.0000000  0 10G07G11G19G28G30G15G06G01G17G13
 116438085.116 8  22157433.938    90730977.65845  22157441.918
 120268469.653 7  22886324.703    93715732.79844  22886331.277
 113013879.053 7  21505808.977    88062800.74546  21505814.848
 113368778.755 8  21573359.945    88339316.56546  21573366.402
 109159639.830 8  20772389.398    85059472.40447  20772399.313
 126937112.043 6  24155315.672    98912014.08143  24155323.887
 129450030.115 6  24633515.766   100870199.52043  24633528.316
 120488151.374 7  22928115.344    93886877.06145  22928126.430
 108433637.282 8  20634215.023    84493760.86747  20634222.711
 114804012.316 8  21846477.039    89457720.00245  21846484.492
 18  3  9  0 14  0.0000000  0 10G07G11G19G28G30G15G06G01G17G13
 116513303.913 8  22171747.289    90789589.67245  22171755.270
 120330428.649 7  22898114.836    93764012.52144  22898121.527
 112936615.136 7  21491106.227    88002595.12246  21491111.805
 113389812.148 8  21577362.484    88355706.21546  21577369.352
 109199605.935 8  20779994.328    85090614.80547  20780004.828
 126900656.970 6  24148378.508    98883607.52143  24148386.547
 129349787.131 6  24614438.438   100792088.21843  24614452.867
 120503348.402 7  22931007.367    93898718.91545  22931018.629
 108411425.272 8  20629988.219    84476452.81847  20629995.672
 114794669.767 8  21844698.781    89450440.08545  21844706.527
 18  3  9  0 14 30.0000000  0 10G07G11G19G28G30G15G06G01G17G13
 116588884.022 8  22186129.172    90848483.23245  22186137.680
 120392869.585 7  22909996.922    93812667.79344  22910003.789
 112859776.465 7  21476484.070    87942720.86046  21476490.293
 113410866.108 8  21581368.461    88372111.89346  21581375.621
 109240004.031 8  20787682.000    85122093.83647  20787692.090
 126864684.836 6  24141533.055    98855577.27743  24141541.152
 129249423.542 5  24595340.781   100713882.98842  24595354.094
 120519117.833 7  22934008.188    93911006.79544  22934019.098
 108389695.984 8  20625853.289    84459520.91047  20625861.152
 114785916.766 8  21843033.688    89443619.56145  21843040.848
 18  3  9  0 15  0.0000000  0 10G07G11G19G28G30G15G06G01G17G13
 116664824.285 8  22200580.813    90907657.43145  22200588.207
 120455790.251 7  22921970.219    93861696.86844  22921976.617
 112783364.438 7  21461943.555    87883179.04646  21461949.133
 113431940.061 8  21585378.867    88388533.15546  21585386.379
 109280833.914 8  20795451.719    85153909.31847  20795462.102
 126829195.960 6  24134779.281    98827923.61343  24134787.848
 129148941.810 6  24576219.164   100635585.70543  24576232.711
 120535459.418 7  22937117.750    93923740.51244  22937128.191
 108368448.684 8  20621809.852    84442964.58447  20621817.305
 114777752.919 8  21841479.891    89437258.11845  21841487.109
 18  3  9  0 15 30.0000000  0 10G07G11G19G28G30G15G06G01G17G13
 116741123.553 7  22215099.523    90967111.37945  22215107.914
 120519188.848 7  22934034.719    93911098.36644  22934041.410
 112707380.952 7  21447484.117    87823971.16046  21447490.164
 113453034.331 8  21589393.055    88404970.24246  21589400.156
 109322095.730 8  20803304.078    85186061.36747  20803313.934
 126794191.404 6  24128118.188    98800647.34743  24128126.578
 129048344.619 6  24557075.852   100557198.42243  24557089.988
 120552373.499 7  22940336.336    93936920.31545  22940347.070
 108347683.320 8  20617858.313    84426783.78347  20617866.117
 114770178.350 7  21840037.961    89431355.84745  21840046.000
 18  3  9  0 16  0.0000000  0 10G07G11G19G28G30G15G06G01G17G13
 116817781.317 8  22229687.031    91026844.66445  22229695.363
 120583063.399 7  22946189.625    93960870.73144  22946196.785
 112631827.893 7  21433106.828    87765098.66246  21433112.758
 113474148.851 8  21593411.102    88421423.11846  21593417.969
 109363789.850 8  20811237.914    85218550.27347  20811248.063
 126759671.760 6  24121548.539    98773748.93443  24121558.102
 128947634.682 5  24537910.352   100478723.33743  24537924.957
 120569860.397 7  22943663.945    93950546.47145  22943675.148
 108327400.105 8  20613998.680    84410978.69747  20614006.543
 114763193.024 7  21838709.250    89425912.73445  21838716.645
 18  3  9  0 16 30.0000000  0 10G07G11G19G28G30G15G06G01G17G13
 116894796.103 8  22244343.336    91086856.16345  22244351.023
 120647411.711 7  22958434.180    94011012.24744  22958441.691
 112556706.234 7  21418811.531    87706562.32846  21418817.813
 113495282.887 8  21597432.969    88437891.19346  21597439.777
 109405915.784 8  20819254.172    85251375.66747  20819264.145
 126725637.643 6  24115073.156    98747228.84543  24115081.430
 128846814.315 6  24518726.664   100400162.11843  24518740.152
 120587919.774 7  22947100.883    93964618.73545  22947111.734
 108307597.751 8  20610230.297    84395548.29647  20610237.926
 114756796.551 8  21837492.320    89420928.46545  21837499.715
 18  3  9  0 17  0.0000000  0 10G07G11G19G28G30G15G06G01G17G13
 116972166.875 7  22259066.133    91147145.04645  22259074.406
 120712232.084 7  22970769.047    94061521.62544  22970775.914
 112482017.811 7  21404598.500    87648363.58246  21404604.898
 113516436.414 7  21601458.219    88454374.46146  21601465.379
 109448473.628 8  20827352.664    85284537.60647  20827362.871
 126692089.657 6  24108689.727    98721087.52844  24108697.355
 128745885.974 6  24499520.039   100321516.81343  24499533.703
 120606551.669 7  22950645.844    93979137.08845  22950657.047
 108288275.819 8  20606553.633    84380492.26147  20606561.145
 114750988.656 7  21836386.602    89416402.82545  21836394.348
 18  3  9  0 17 30.0000000  0 10G07G11G19G28G30G15G06G01G17G13
 117049892.395 7  22273856.969    91207710.36645  22273865.066
 120777522.303 7  22983193.555    94112397.10244  22983200.363
 112407763.561 7  21390468.969    87590503.14846  21390474.898
 113537608.805 8  21605487.203    88470872.42246  21605493.895
 109491462.933 8  20835533.203    85318035.75047  20835543.469
 126659028.045 7  24102396.844    98695325.24044  24102405.879
 128644852.043 6  24480293.719   100242789.24443  24480306.914
 120625755.776 7  22954299.969    93994101.33944  22954311.992
 108269433.671 8  20602968.016    84365810.07847  20602975.586
 114745768.804 8  21835393.680    89412335.40045  21835400.957
 18  3  9  0 18  0.0000000  0 10G07G11G19G28G30G15G06G01G17G13
 117127971.874 7  22288714.227    91268551.48145  22288723.613
 120843280.214 7  22995706.977    94163637.01444  22995714.781
 112333945.603 7  21376421.633    87532982.68946  21376427.973
 113558800.233 8  21609519.672    88487385.22946  21609526.832
 109534883.990 8  20843796.055    85351870.31947  20843805.969
 126626453.538 6  24096198.422    98669942.50843  24096207.457
 128543715.269 6  24461047.477   100163981.46243  24461060.203
 120645532.347 7  22958063.633    94009511.66744  22958075.363
 108251071.363 8  20599473.680    84351501.79147  20599481.191
 114741137.304 7  21834512.352    89408726.42945  21834519.277
 18  3  9  0 18 30.0000000  0 10G07G11G19G28G30G15G06G01G17G13
 117206404.358 7  22303640.125    91329667.66345  22303648.223
 120909504.214 7  23008308.109    94215240.11544  23008316.207
 112260565.763 7  21362457.398    87475803.61146  21362463.738
 113580010.893 8  21613556.313    88503913.00546  21613562.770
 109578736.959 8  20852141.039    85386041.44947  20852151.070
 126594367.110 6  24090093.094    98644940.11543  24090101.543
 128442478.576 6  24441783.180   100085095.80843  24441795.379
 120665881.565 7  22961936.484    94025368.21145  22961947.453
 108233188.644 8  20596070.461    84337567.21947  20596078.207
 114737093.743 8  21833742.180    89405575.59545  21833750.805
 18  3  9  0 19  0.0000000  0 10G07G11G19G28G30G15G06G01G17G13
 117285188.326 7  22318631.859    91391057.72545  22318639.898
 120976191.650 7  23020999.594    94267204.34444  23021006.578
 112187624.808 8  21348577.719    87418966.53246  21348583.941
 113601239.756 8  21617595.648    88520454.97046  21617602.633
 109623021.218 8  20860567.914    85420548.65446  20860577.887
 126562768.796 6  24084080.203    98620318.06243  24084088.418
 128341143.982 5  24422499.484   100006133.92443  24422512.914
 120686802.755 7  22965917.484    94041670.44444  22965928.805
 108215784.258 8  20592758.641    84324005.36547  20592766.211
 114733637.676 8  21833084.625    89402882.54945  21833092.898
 18  3  9  0 19 30.0000000  0 10G07G11G19G28G30G15G06G01G17G13
 117364323.022 7  22333691.180    91452721.09545  22333699.043
 121043340.910 7  23033778.188    94319528.41644  23033784.762
 112115124.660 8  21334781.063    87362472.93046  21334786.992
 113622487.126 7  21621638.914    88537011.35846  21621645.664
 109667736.987 8  20869077.211    85455392.08546  20869087.184
 126531659.539 6  24078160.406    98596077.08543  24078168.797
 128239714.472 5  24403198.875    99927098.06843  24403210.898
 120708296.174 7  22970006.695    94058418.56844  22970018.133
 108198858.165 8  20589537.852    84310816.21047  20589545.480
 114730768.818 7  21832539.250    89400647.07045  21832547.172
 18  3  9  0 20  0.0000000  0 10G07G11G19G28G30G15G06G01G17G13
 117443806.973 7  22348816.680    91514656.60845  22348824.777
 121110949.541 7  23046642.008    94372210.46844  23046650.340
 112043066.449 7  21321069.188    87306323.69546  21321075.117
 113643752.683 7  21625685.359    88553581.91946  21625692.461
 109712883.851 8  20877668.359    85490571.44347  20877678.449
 126501039.601 7  24072334.117    98572217.40244  24072341.805
 128138192.417 6  24383879.656    99847990.06743  24383892.207
 120730361.423 7  22974205.969    94075612.28044  22974217.406
 108182409.524 9  20586407.625    84297999.10047  20586415.254
 114728486.595 7  21832104.797    89398868.70845  21832112.719
 18  3  9  0 20 30.0000000  0 10G07G11G19G28G30G15G06G01G17G13
 117523639.323 7  22364008.031    91576863.58745  22364015.836
 121179016.101 7  23059594.234    94425249.32144  23059602.801
 111971452.053 7  21307441.430    87250520.28846  21307447.652
 113665036.746 8  21629735.594    88570166.89846  21629743.281
 109758461.997 8  20886341.211    85526086.86647  20886351.535
 126470909.413 6  24066599.180    98548739.33943  24066608.215
 128036580.634 6  24364542.789    99768812.15743  24364556.102
 120752998.654 7  22978513.367    94093251.68244  22978524.980
 108166438.122 8  20583368.359    84285553.85947  20583376.516
 114726790.915 7  21831781.945    89397547.39345  21831789.633
 18  3  9  0 21  0.0000000  0 10G07G11G19G28G30G15G06G01G17G13
 117603819.304 7  22379265.195    91639341.45145  22379273.703
 121247538.052 7  23072634.344    94478643.02244  23072642.148
 111900282.653 8  21293898.109    87195063.63646  21293903.922
 113686338.798 8  21633789.109    88586765.89746  21633796.621
 109804471.025 8  20895096.742    85561938.04547  20895106.949
 126441269.224 6  24060960.016    98525643.07443  24060967.996
 127934881.589 5  24345191.156    99689566.28543  24345203.355
 120776207.382 7  22982930.438    94111336.40645  22982941.465
 108150943.385 9  20580420.039    84273480.04547  20580427.668
 114725681.528 8  21831570.953    89396682.91945  21831578.699
 18  3  9  0 21 30.0000000  0 10G07G11G19G28G30G15G06G01G17G13
 117684345.116 8  22394589.445    91702088.79245  22394597.426
 121316513.575 7  23085760.109    94532390.17444  23085767.973
 111829559.863 7  21280439.719    87139954.99446  21280446.000
 113707658.798 8  21637846.609    88603378.88246  21637853.945
 109850911.100 8  20903934.109    85598125.09947  20903943.906
 126412120.288 6  24055412.117    98502929.62343  24055421.035
 127833098.256 5  24325821.406    99610254.71043  24325834.074
 120799987.739 7  22987455.484    94129866.56145  22987466.512
 108135924.720 9  20577561.922    84261777.19947  20577569.727
 114725157.698 8  21831471.313    89396274.73045  21831479.176
 18  3  9  0 22  0.0000000  0 10G07G11G19G28G30G15G06G01G17G13
 117765215.383 7  22409978.836    91765104.54245  22409986.992
 121385940.085 6  23098970.719    94586488.72544  23098979.520
 111759284.370 7  21267066.906    87085194.89146  21267072.836
 113728996.405 8  21641906.445    88620005.58246  21641914.309
 109897781.461 8  20912853.102    85634647.45246  20912862.898
 126383462.198 6  24049959.172    98480598.64943  24049967.621
 127731232.692 5  24306436.766    99530879.04843  24306449.727
 120824338.891 7  22992089.344    94148841.49145  22992100.664
 108121380.912 9  20574794.523    84250444.38047  20574802.445
 114725218.801 8  21831482.922    89396322.33245  21831490.727
 18  3  9  0 22 30.0000000  0 10G07G11G19G28G30G15G06G01G17G13
 117846429.023 7  22425431.672    91828387.86545  22425440.883
 121455815.176 7  23112269.125    94640936.81743  23112275.992
 111689458.159 7  21253779.195    87030784.87646  21253785.359
 113750351.587 7  21645970.984    88636645.97346  21645977.734
 109945081.887 8  20921854.117    85671504.91546  20921864.734
 126355295.235 6  24044599.313    98458650.35043  24044607.059
 127629287.477 5  24287036.945    99451441.33943  24287050.609
 120849260.561 6  22996831.508    94168260.97444  22996843.414
 108107311.395 8  20572116.906    84239481.12247  20572124.828
 114725864.304 8  21831605.688    89396825.31445  21831613.668
 18  3  9  0 23  0.0000000  0 10G07G11G19G28G30G15G06G01G17G13
 117927985.176 7  22440952.773    91891938.06845  22440960.988
 121526137.019 7  23125651.445    94695733.04844  23125657.492
 111620082.486 7  21240577.961    86976725.93746  21240584.008
 113771724.368 8  21650037.672    88653300.07746  21650045.125
 109992812.252 8  20930937.047    85708697.39746  20930947.430
 126327620.102 6  24039332.070    98437085.30943  24039341.223
 127527265.571 5  24267623.141    99371943.82543  24267636.160
 120874752.604 7  23001682.172    94188124.89944  23001693.961
 108093715.826 9  20569529.961    84228887.18647  20569537.883
 114727093.817 8  21831839.914    89397783.36445  21831847.367
 18  3  9  0 23 30.0000000  0 10G07G11G19G28G30G15G06G01G17G13
 118009882.747 7  22456537.023    91955754.32345  22456544.945
 121596903.615 7  23139116.359    94750875.82244  23139123.988
 111551158.496 7  21227461.898    86923018.95046  21227467.887
 113793114.561 7  21654108.328    88669967.75646  21654115.195
 110040972.591 8  20940101.711    85746224.92547  20940111.918
 126300437.158 6  24034159.656    98415903.81043  24034168.105
 127425169.689 5  24248194.445    99292388.71843  24248207.465
 120900814.901 7  23006642.109    94208433.17744  23006653.430
 108080593.657 9  20567033.109    84218662.12347  20567040.680
 114728906.697 7  21832184.969    89399195.98445  21832192.598
 18  3  9  0 24  0.0000000  0 10G07G11G19G28G30G15G06G01G17G13
 118092119.634 7  22472186.492    92019834.96945  22472194.473
 121668112.587 7  23152666.773    94806363.31943  23152674.578
 111482687.320 7  21214432.359    86869664.81346  21214438.055
 113814521.811 8  21658181.492    88686648.72646  21658189.004
 110089562.195 8  20949347.742    85784086.93747  20949358.008
 126273746.647 7  24029080.188    98395106.00343  24029089.516
 127323002.16716  24228752.023    99212777.73853  24228765.980
 120927446.662 7  23011709.875    94229185.20844  23011721.840
 108067943.726 8  20564625.719    84208805.04847  20564633.113
 114731302.237 7  21832640.602    89401062.63145  21832648.406
 18  3  9  0 24 30.0000000  0 10G07G11G19G28G30G15G06G01G17G13
 118174695.397 7  22487900.125    92084179.69445  22487908.105
 121739761.773 7  23166301.109    94862193.84744  23166309.441
 111414671.062 8  21201489.227    86816665.15246  21201495.098
 113835946.605 7  21662258.781    88703343.36846  21662265.473
 110138581.264 8  20958675.859    85822283.59846  20958685.773
 126247549.115 6  24024096.172    98374692.35743  24024104.328
 127220766.14215  24209298.289    99133113.40053  24209311.191
 120954647.973 7  23016886.422    94250381.04445  23016897.391
 108055765.969 9  20562308.430    84199315.89947  20562315.824
 114734280.263 8  21833206.992    89403383.16145  21833214.738
 18  3  9  0 25  0.0000000  0 10G07G11G19G28G30G15G06G01G17G13
 118257608.466 7  22503677.953    92148787.23845  22503685.816
 121811849.004 7  23180019.672    94918365.67643  23180027.477
 111347110.456 8  21188632.875    86764020.54746  21188638.980
 113857388.586 7  21666339.297    88720051.39746  21666346.516
 110188029.088 8  20968085.305    85860814.35746  20968095.629
 126221844.201 6  24019204.461    98354662.54943  24019213.027
 127118464.005 6  24189829.813    99053397.55943  24189843.535
 120982418.018 6  23022170.211    94272020.05144  23022182.234
 108044059.204 8  20560080.453    84190193.74847  20560087.848
 114737839.775 8  21833884.227    89406156.80345  21833892.266
 18  3  9  0 25 30.0000000  0 10G07G11G19G28G30G15G06G01G17G13
 118340857.327 7  22519519.555    92213656.46345  22519527.887
 121884371.830 7  23193820.453    94974876.94644  23193826.559
 111280006.372 8  21175863.250    86711731.66746  21175868.477
 113878847.277 7  21670422.414    88736772.45446  21670429.457
 110237905.075 8  20977576.305    85899678.73946  20977586.453
 126196632.313 7  24014406.234    98335016.94043  24014415.445
 127016097.935 5  24170350.578    98973631.90743  24170364.008
 121010756.057 7  23027562.781    94294101.62444  23027574.863
 108032822.146 8  20557942.141    84181437.60247  20557949.652
 114741979.636 8  21834672.414    89409382.65445  21834680.160
 18  3  9  0 26  0.0000000  0 10G07G11G19G28G30G15G06G01G17G13
 118424441.041 7  22535424.797    92278786.58445  22535433.070
 121957328.121 7  23207703.258    95031726.03143  23207710.184
 111213360.505 7  21163181.445    86659799.84446  21163187.082
 113900323.360 7  21674509.406    88753507.06146  21674516.566
 110288209.372 8  20987149.164    85938876.88146  20987159.664
 126171914.057 7  24009702.352    98315755.96444  24009711.738
 126913671.365 5  24150858.984    98893819.09343  24150872.824
 121039662.126 7  23033064.313    94316625.83145  23033075.926
 108022054.936 8  20555893.047    84173047.58147  20555900.676
 114746699.999 8  21835570.766    89413060.84745  21835578.863
 18  3  9  0 26 30.0000000  0 10G07G11G19G28G30G15G06G01G17G13
 118508357.869 7  22551393.859    92344176.27744  22551402.484
 122030715.620 7  23221668.578    95088911.04344  23221675.973
 111147173.545 7  21150586.039    86608225.60846  21150592.086
 113921816.131 7  21678599.508    88770254.67146  21678606.375
 110338941.341 8  20996803.195    85978408.26847  20996813.344
 126147689.419 7  24005093.109    98296879.61443  24005101.734
 126811186.588 6  24131357.477    98813960.96143  24131370.379
 121069135.413 7  23038673.445    94339592.02344  23038684.004
 108011756.213 8  20553933.383    84165022.60447  20553941.012
 114751999.685 8  21836579.367    89417190.46645  21836586.879
 18  3  9  0 27  0.0000000  0 10G07G11G19G28G30G15G06G01G17G13
 118592606.882 7  22567426.008    92409824.81945  22567434.223
 122104532.313 7  23235715.883    95146430.53644  23235722.633
 111081447.818 7  21138078.711    86557010.77246  21138084.934
 113943326.122 7  21682692.891    88787015.69346  21682699.934
 110390101.007 8  21006538.586    86018272.93146  21006549.086
 126123958.854 7  24000576.867    98278388.26243  24000585.668
 126708646.674 6  24111843.539    98734059.85343  24111857.496
 121099175.778 7  23044389.000    94363000.10045  23044400.730
 108001925.928 8  20552062.805    84157362.65247  20552070.199
 114757878.202 8  21837697.570    89421771.11845  21837705.727
 18  3  9  0 27 30.0000000  0 10G07G11G19G28G30G15G06G01G17G13
 118677186.983 7  22583521.328    92475731.35845  22583529.309
 122178775.603 7  23249843.133    95204282.43444  23249850.820
 111016184.096 7  21125659.477    86506155.94146  21125665.758
 113964853.287 7  21686788.969    88803790.10446  21686796.422
 110441687.782 8  21016355.211    86058470.40846  21016365.184
 126100722.261 7  23996155.586    98260281.83144  23996163.977
 126606054.189 6  24092321.109    98654117.78543  24092334.598
 121129782.471 7  23050213.188    94386849.47745  23050224.566
 107992562.612 8  20550281.055    84150066.56747  20550288.918
 114764334.667 8  21838926.414    89426802.12045  21838934.629
 18  3  9  0 28  0.0000000  0 10G07G11G19G28G30G15G06G01G17G13
 118762096.221 7  22599678.594    92541894.34845  22599687.512
 122253442.850 7  23264052.328    95262464.68743  23264059.664
 110951383.063 7  21113328.578    86455661.64946  21113334.098
 113986397.117 8  21690888.594    88820577.50446  21690895.637
 110493700.942 8  21026252.906    86099000.12946  21026263.523
 126077979.692 7  23991827.750    98242560.35644  23991836.082
 126503411.500 6  24072789.820    98574136.58143  24072802.371
 121160954.674 7  23056145.359    94411139.52044  23056156.855
 107983665.253 9  20548587.945    84143133.57247  20548595.516
 114771368.304 8  21840264.656    89432282.86045  21840272.637
 18  3  9  0 28 30.0000000  0 10G07G11G19G28G30G15G06G01G17G13
 118847333.484 7  22615898.039    92608312.95145  22615907.484
 122328532.675 7  23278342.641    95320976.20243  23278348.629
 110887045.922 7  21101085.477    86405528.83046  21101091.230
 114007958.046 7  21694991.227    88837378.22246  21694999.031
 110546140.406 8  21036231.672    86139862.04346  21036241.996
 126055731.614 7  23987594.227    98225224.17344  23987602.969
 126400721.642 6  24053248.547    98494118.63043  24053261.098
 121192691.971 7  23062185.133    94435869.88145  23062196.277
 107975233.522 9  20546983.633    84136563.39447  20546990.617
 114778977.959 8  21841713.109    89438212.45245  21841720.797
 18  3  9  0 29  0.0000000  0 10G07G11G19G28G30G15G06G01G17G13
 118932897.359 7  22632180.820    92674986.06945  22632189.621
 122404042.075 7  23292710.828    95379814.67843  23292717.637
 110823174.216 7  21088930.859    86355758.68346  21088937.082
 114029535.930 7  21699097.656    88854192.15046  21699104.641
 110599005.625 8  21046291.688    86181055.70346  21046302.305
 126033977.713 7  23983454.945    98208273.08644  23983463.570
 126297987.339 6  24033697.828    98414066.02343  24033710.672
 121224993.753 7  23068331.484    94461040.10445  23068342.980
 107967266.227 8  20545467.039    84130355.11747  20545474.668
 114787163.066 8  21843270.695    89444590.44245  21843278.734
 18  3  9  0 29 30.0000000  0 10G07G11G19G28G30G15G06G01G17G13
 119018786.524 7  22648525.375    92741912.64344  22648534.000
 122479968.795 7  23307159.758    95438978.33844  23307166.215
 110759768.995 7  21076865.297    86306352.03746  21076870.992
 114051130.820 7  21703207.438    88871019.33546  21703214.715
 110652296.153 8  21056432.484    86222580.78646  21056442.867
 126012718.324 7  23979409.227    98191707.33144  23979417.734
 126195211.269 6  24014139.805    98333980.87543  24014153.469
 121257859.315 7  23074585.414    94486649.63844  23074596.969
 107959762.391 8  20544039.375    84124507.98147  20544046.770
 114795922.760 8  21844937.289    89451416.16445  21844945.152
 18  3  9  0 30  0.0000000  0 10G07G11G19G28G30G15G06G01G17G13
 119104999.717 7  22664931.242    92809091.72345  22664939.633
 122556310.814 7  23321685.383    95498465.59543  23321693.480
 110696831.264 7  21064888.672    86257309.66546  21064894.543
 114072742.932 8  21707319.789    88887859.93846  21707326.305
 110706011.687 8  21066654.539    86264437.03246  21066664.922
 125991953.623 7  23975457.672    98175527.03944  23975466.004
 126092396.341 6  23994575.953    98253865.43843  23994588.387
 121291288.129 7  23080946.883    94512698.07244  23080958.262
 107952721.552 9  20542699.477    84119021.62347  20542706.871
 114805256.213 8  21846714.297    89458688.97045  21846722.043
 18  3  9  0 30 30.0000000  0 10G07G11G19G28G30G15G06G01G17G13
 119191535.147 7  22681398.203    92876521.90444  22681406.770
 122633065.414 7  23336291.656    95558274.37443  23336298.934
 110634361.952 7  21053001.117    86208632.29746  21053006.988
 114094371.750 7  21711435.547    88904713.55146  21711442.414
 110760151.264 8  21076957.172    86306623.70346  21076967.379
 125971683.172 7  23971599.883    98159731.88444  23971609.035
 125989544.897 6  23975004.125    98173721.54843  23975016.207
 121325279.042 7  23087415.227    94539184.49144  23087426.488
 107946142.209 8  20541447.586    84113894.86747  20541454.922
 114815162.186 8  21848598.797    89466407.90045  21848606.719
 18  3  9  0 31  0.0000000  0 10G07G11G19G28G30G15G06G01G17G13
 119278391.861 7  22697927.055    92944202.41445  22697935.035
 122710230.393 7  23350976.594    95618402.89643  23350983.520
 110572362.428 7  21041203.195    86160320.99446  21041208.891
 114116017.518 8  21715554.422    88921580.37746  21715561.641
 110814714.621 8  21087339.977    86349140.58846  21087350.008
 125951907.177 7  23967837.109    98144322.01243  23967845.207
 125886659.986 6  23955425.055    98093551.57243  23955437.723
 121359831.562 7  23093989.992    94566108.53245  23094002.074
 107940023.573 8  20540283.164    84109127.10747  20540290.617
 114825639.752 8  21850592.805    89474572.22445  21850600.316
 18  3  9  0 31 30.0000000  0 10G07G11G19G28G30G15G06G01G17G13
 119365568.177 7  22714515.836    93012131.96544  22714524.285
 122787803.580 6  23365737.406    95678849.54543  23365745.563
 110510833.705 7  21029494.484    86112376.54847  21029500.590
 114137680.733 7  21719677.188    88938460.79746  21719684.289
 110869701.495 8  21097803.602    86391987.48446  21097814.043
 125932625.903 7  23964168.258    98129297.64343  23964176.238
 125783744.514 6  23935840.898    98013357.79143  23935853.215
 121394945.180 7  23100671.859    94593469.78944  23100683.590
 107934365.283 8  20539206.320    84104718.05847  20539214.184
 114836688.178 8  21852695.273    89483181.38045  21852702.316
 18  3  9  0 32  0.0000000  0 10G07G11G19G28G30G15G06G01G17G13
 119453062.599 7  22731165.688    93080309.38345  22731173.844
 122865782.497 7  23380577.242    95739612.29943  23380584.285
 110449776.748 8  21017875.953    86064799.71747  21017881.590
 114159361.170 7  21723802.594    88955354.64946  21723810.047
 110925111.097 8  21108347.789    86435163.78146  21108358.230
 125913839.034 7  23960593.117    98114658.53243  23960601.273
 125680801.123 6  23916251.195    97933142.26243  23916264.039
 121430618.881 7  23107460.719    94621267.47444  23107472.273
 107929165.847 9  20538216.984    84100666.55847  20538225.082
 114848306.241 8  21854906.352    89492234.40845  21854913.746
 18  3  9  0 32 30.0000000  0 10G07G11G19G28G30G15G06G01G17G13
 119540873.539 7  22747875.438    93148733.44545  22747883.828
 122944164.450 6  23395491.531    95800689.16343  23395499.277
 110389192.488 8  21006346.648    86017591.23147  21006352.695
 114181058.807 7  21727931.961    88972261.89346  21727938.652
 110980942.841 7  21118972.164    86478669.01646  21118982.137
 125895546.754 7  23957112.102    98100404.80944  23957120.727
 125577832.490 6  23896657.211    97852907.08243  23896669.352
 121466851.748 7  23114355.773    94649500.88044  23114367.387
 107924423.931 9  20537314.625    84096971.56547  20537322.137
 114860493.002 8  21857225.008    89501730.57045  21857232.637
 18  3  9  0 33  0.0000000  0 10G07G11G19G28G30G15G06G01G17G13
 119628999.806 7  22764645.664    93217403.22045  22764654.348
 123022947.330 6  23410484.828    95862078.36443  23410491.871
 110329081.951 8  20994908.141    85970751.86546  20994914.188
 114202773.724 7  21732063.883    88989182.60946  21732071.043
 111037196.294 8  21129676.891    86522502.86246  21129687.156
 125877748.950 7  23953724.813    98086536.38544  23953733.262
 125474841.597 6  23877058.805    97772654.54243  23877070.828
 121503643.132 7  23121356.422    94678169.48744  23121367.391
 107920138.801 9  20536499.039    84093632.51147  20536506.375
 114873247.247 8  21859651.688    89511668.92745  21859659.961
 18  3  9  0 33 30.0000000  0 10G07G11G19G28G30G15G06G01G17G13
 119717440.033 7  22781475.453    93286317.65545  22781483.668
 123102128.859 6  23425551.414    95923778.26643  23425559.453
 110269446.226 8  20983560.047    85924282.48647  20983565.566
 114224506.284 8  21736199.063    89006117.06246  21736206.574
 111093870.848 8  21140461.906    86566664.83646  21140471.996
 125860445.423 7  23950432.078    98073053.11344  23950441.523
 125371831.154 6  23857455.844    97692386.76843  23857468.336
 121540992.175 7  23128463.148    94707272.63144  23128474.938
 107916309.710 9  20535770.477    84090648.81047  20535778.047
 114886568.178 8  21862186.867    89522048.86645  21862194.379
 18  3  9  0 34  0.0000000  0 10G07G11G19G28G30G15G06G01G17G13
 119806192.477 7  22798364.258    93355475.36245  22798372.473
 123181706.479 6  23440695.086    95985786.77243  23440702.598
 110210286.260 8  20972302.227    85878183.82547  20972307.980
 114246256.363 8  21740338.453    89023065.16846  21740345.906
 111150965.803 7  21151326.594    86611154.39046  21151336.566
 125843635.897 7  23947234.422    98059954.79444  23947242.402
 125268803.933 6  23837850.484    97612105.90743  23837862.273
 121578897.851 7  23135676.891    94736809.53444  23135688.504
 107912935.350 9  20535128.406    84088019.44347  20535136.387
 114900454.524 8  21864829.320    89532869.38745  21864837.242
 18  3  9  0 34 30.0000000  0 10G07G11G19G28G30G15G06G01G17G13
 119895255.562 7  22815312.453    93424875.13245  22815321.078
 123261677.843 6  23455912.414    96048102.10343  23455919.984
 110151602.650 8  20961135.695    85832456.35647  20961140.746
 114268024.206 8  21744480.961    89040027.12046  21744487.828
 111208480.614 8  21162271.117    86655971.10846  21162281.734
 125827320.433 7  23944129.016    98047241.44144  23944137.758
 125165762.773 6  23818242.375    97531814.19043  23818254.516
 121617359.348 7  23142996.867    94766779.52644  23143007.426
 107910014.807 8  20534572.477    84085743.69947  20534580.398
 114914905.034 8  21867579.266    89544129.51245  21867587.188
 18  3  9  0 35  0.0000000  0 10G07G11G19G28G30G15G06G01G17G13
 119984627.951 7  22832319.273    93494515.91944  22832327.957
 123342040.368 6  23471205.570    96110722.23743  23471212.906
 110093396.649 7  20950058.742    85787101.04947  20950064.496
 114289810.291 8  21748626.633    89057003.28246  21748634.145
 111266414.695 7  21173295.914    86701114.52546  21173306.648
 125811499.048 7  23941118.453    98034913.10344  23941127.020
 125062710.558 6  23798632.430    97451513.86444  23798643.984
 121656375.780 7  23150421.203    94797181.94545  23150432.406
 107907546.975 8  20534103.016    84083820.72347  20534110.352
 114929918.930 8  21870436.469    89555828.64445  21870443.980
 18  3  9  0 35 30.0000000  0 10G07G11G19G28G30G15G06G01G17G13
 120074308.054 7  22849384.867    93564396.46744  22849393.785
 123422791.594 7  23486573.164    96173645.21943  23486579.035
 110035669.058 8  20939073.813    85742118.52647  20939079.566
 114311614.096 8  21752775.555    89073993.25746  21752782.363
 111324767.283 8  21184399.781    86746584.05546  21184410.047
 125796171.375 7  23938201.367    98022969.45644  23938210.285
 124959649.957 6  23779020.047    97371206.98644  23779032.246
 121695946.058 7  23157950.766    94828015.92844  23157961.793
 107905530.534 8  20533719.344    84082249.47647  20533727.090
 114945494.488 8  21873400.445    89567965.43445  21873407.898
 18  3  9  0 36  0.0000000  0 10G07G11G19G28G30G15G06G01G17G13
 120164294.378 7  22866508.367    93634515.62845  22866517.578
 123503929.274 7  23502012.578    96236869.38043  23502019.387
 109978420.651 8  20928179.719    85697509.39047  20928186.000
 114333435.895 8  21756927.977    89090997.25446  21756935.195
 111383537.685 8  21195583.992    86792379.15946  21195594.434
 125781337.058 7  23935378.898    98011410.25544  23935387.875
 124856583.828 6  23759407.172    97290895.79644  23759419.605
 121736069.186 7  23165586.414    94859280.69344  23165597.324
 107903964.705 8  20533421.375    84081029.35347  20533428.828
 114961630.555 8  21876471.063    89580538.97145  21876478.926
 18  3  9  0 36 30.0000000  0 10G07G11G19G28G30G15G06G01G17G13
 120254585.328 7  22883690.719    93704872.16445  22883699.461
 123585450.780 6  23517524.977    96300392.64743  23517532.781
 109921652.673 7  20917376.773    85653274.62047  20917382.645
 114355276.062 8  21761084.477    89108015.55446  21761091.344
 111442725.332 8  21206846.719    86838499.38246  21206857.453
 125766996.087 7  23932649.156    98000235.45444  23932658.777
 124753515.140 6  23739793.891    97210582.64744  23739805.680
 121776744.289 7  23173325.336    94890975.56444  23173337.887
 107902848.271 9  20533208.734    84080159.40947  20533216.773
 114978326.214 8  21879647.852    89593548.56545  21879655.949
 18  3  9  0 37  0.0000000  0 10G07G11G19G28G30G15G06G01G17G13
 120345179.531 7  22900930.484    93775465.01544  22900938.113
 123667353.589 6  23533110.391    96364213.00843  23533117.902
 109865365.811 8  20906666.031    85609414.74347  20906671.258
 114377134.863 8  21765244.078    89125048.38246  21765250.828
 111502329.603 8  21218188.945    86884944.25046  21218198.977
 125753148.399 7  23930014.172    97989445.05544  23930022.973
 124650446.750 6  23720180.477    97130269.72044  23720193.027
 121817970.424 7  23181170.383    94923099.84044  23181182.816
 107902180.126 9  20533081.922    84079638.78147  20533089.492
 114995580.018 8  21882930.906    89606993.08045  21882939.004
 18  3  9  0 37 30.0000000  0 10G07G11G19G28G30G15G06G01G17G13
 120436074.974 7  22918226.875    93846292.58844  22918235.324
 123749635.087 7  23548768.383    96428328.44443  23548775.836
 109809560.607 8  20896046.648    85565930.17446  20896052.461
 114399011.949 8  21769407.016    89142095.45846  21769413.648
 111562349.540 8  21229610.094    86931713.01646  21229620.184
 125739793.634 7  23927473.445    97979038.75344  23927481.895
 124547381.300 6  23700566.953    97049959.05143  23700580.793
 121859746.241 7  23189121.547    94955652.39244  23189132.633
 107901958.794 9  20533039.313    84079466.31947  20533047.410
 115013390.614 7  21886320.570    89620871.45345  21886328.375
 18  3  9  0 38  0.0000000  0 10G07G11G19G28G30G15G06G01G17G13
 120527270.429 7  22935580.758    93917353.95144  22935589.031
 123832293.328 6  23564498.289    96492737.42843  23564505.508
 109754237.918 8  20885519.258    85522821.60446  20885524.836
 114420907.896 7  21773573.445    89159157.22746  21773580.430
 111622784.610 8  21241110.672    86978805.26946  21241121.113
 125726931.036 7  23925025.898    97969015.95444  23925034.230
 124444321.841 6  23680956.188    96969653.04844  23680968.680
 121902070.868 7  23197175.063    94988632.64344  23197186.383
 107902183.705 9  20533082.461    84079641.58047  20533089.855
 115031756.888 7  21889815.398    89635182.81945  21889823.027
 18  3  9  0 38 30.0000000  0 10G07G11G19G28G30G15G06G01G17G13
 120618764.348 7  22952992.000    93988647.87744  22953000.332
 123915325.840 6  23580298.547    96557438.07543  23580305.941
 109699399.143 8  20875083.477    85480090.10646  20875089.523
 114442823.111 8  21777743.172    89176234.00946  21777750.859
 111683634.129 8  21252689.773    87026220.46446  21252700.508
 125714560.769 7  23922671.773    97959376.79144  23922680.223
 124341271.300 6  23661346.031    96889353.98844  23661358.816
 121944943.307 7  23205333.781    95022039.73844  23205344.340
 107902853.475 9  20533209.820    84080163.48547  20533217.273
 115050677.383 8  21893415.898    89649926.05245  21893423.996
 18  3  9  0 39  0.0000000  0 10G07G11G19G28G30G15G06G01G17G13
 120710555.192 7  22970458.531    94060173.18344  22970467.098
 123998730.003 6  23596169.531    96622428.31743  23596176.457
 109645044.660 8  20864740.234    85437735.97847  20864745.461
 114464757.601 7  21781917.641    89193325.80546  21781924.742
 111744897.391 8  21264347.508    87073958.04346  21264358.184
 125702682.645 7  23920411.938    97950121.09844  23920420.152
 124238232.551 6  23641738.570    96809064.13144  23641750.887
 121988362.468 7  23213596.055    95055872.84344  23213606.496
 107903966.968 9  20533421.438    84081031.14647  20533429.301
 115070150.841 8  21897121.867    89665100.16445  21897129.848
 18  3  9  0 39 30.0000000  0 10G07G11G19G28G30G15G06G01G17G13
 120802641.092 7  22987982.586    94131928.39344  22987991.504
 124082502.909 6  23612110.250    96687705.90943  23612118.113
 109591174.970 8  20854489.031    85395759.60747  20854494.902
 114486711.322 8  21786095.242    89210432.59846  21786102.578
 111806573.330 7  21276084.313    87122017.20146  21276094.871
 125691295.743 7  23918244.109    97941248.18744  23918253.262
 124135208.251 6  23622133.320    96728785.52144  23622146.105
 122032326.941 7  23221962.078    95090130.88244  23221973.457
 107905522.561 8  20533717.875    84082243.30447  20533725.680
 115090175.625 8  21900932.328    89680703.87645  21900939.781
 18  3  9  0 40  0.0000000  0 10G07G11G19G28G30G15G06G01G17G13
 120895020.553 7  23005561.813    94203912.34544  23005570.613
 124166642.571 6  23628121.992    96753269.26143  23628129.680
 109537791.205 8  20844330.758    85354161.88947  20844336.043
 114508684.531 8  21790276.531    89227554.57746  21790283.691
 111868661.330 7  21287899.750    87170397.44246  21287909.605
 125680400.122 7  23916171.266    97932758.09244  23916179.246
 124032201.404 6  23602531.711    96648520.49944  23602544.438
 122076835.644 7  23230432.445    95124812.98344  23230443.180
 107907519.292 8  20534097.766    84083799.20247  20534104.809
 115110750.731 8  21904847.703    89696736.40545  21904855.156
 18  3  9  0 40 30.0000000  0 10G07G11G19G28G30G15G06G01G17G13
 120987691.973 7  23023196.945    94276123.79444  23023205.629
 124251146.164 6  23644202.859    96819116.16743  23644210.137
 109484893.811 8  20834264.656    85312943.14947  20834269.883
 114530677.786 8  21794462.211    89244692.16146  21794469.020
 111931160.552 7  21299792.320    87219098.11346  21299803.465
 125669995.464 7  23914190.938    97924650.56244  23914199.621
 123929214.923 6  23582934.516    96568271.34044  23582946.949
 122121887.456 7  23239005.156    95159918.28944  23239016.125
 107909955.962 9  20534561.586    84085697.91347  20534569.156
 115131874.328 8  21908866.742    89713196.34145  21908875.191
 18  3  9  0 41  0.0000000  0 10G07G11G19G28G30G15G06G01G17G13
 121080653.621 7  23040885.875    94348561.40644  23040894.910
 124336011.191 6  23660352.023    96885244.77343  23660359.594
 109432483.631 8  20824291.180    85272104.06847  20824296.699
